# Cimarron / Coxcomb area — Kyle's 8 remaining unclimbed ranked 13ers, as one
# multi-day trip. Consolidates two day-reports off the Cimarron forks:
#   - the "remaining six" off the Middle Fork Cimarron TH (#227)
#   - Fortress + Precipice off the West Fork Cimarron TH
# See docs/trips/cimarron_coxcomb.md.
objective_ids:
- 388   # "Heisshorn" 13,418   (Middle Fork six)
- 421   # PT 13,382           (Middle Fork six)
- 602   # PT 13,215           (Middle Fork six)
- 498   # "El Punto" 13,319   (Middle Fork six)
- 445   # PT 13,340 A         (Middle Fork six)
- 571   # PT 13,222 B         (Middle Fork six)
- 552   # "Fortress Pk" 13,246 (West Fork pair)
- 662   # Precipice Pk 13,141  (West Fork pair)
nearby:
  include: false
# Per-day objective assignments → one recommended route per day (build_trip_day_routes.py).
# 3 days: the Middle Fork six, then Fortress and Precipice as separate climbs off West Fork TH.
days:
- {label: "Middle Fork six", objective_ids: [388, 421, 602, 498, 445, 571]}
- {label: "Fortress", objective_ids: [552]}
- {label: "Precipice", objective_ids: [662]}
landmarks:
- name: Middle Fork Cimarron TH (#227)
  lat: 38.143
  lon: -107.525
  kind: trailhead
  ele_ft: 10000
- name: West Fork Cimarron TH
  lat: 38.127
  lon: -107.5598
  kind: trailhead
  ele_ft: 10433
summit_overrides:
  662: {lat: 38.11939, lon: -107.53506, note: 'track summit (6 trk); peak_db was ~172 ft off, ~44 ft low'}
  602: {lat: 38.07411, lon: -107.52441, note: 'track summit (4 trk); peak_db was ~151 ft off, ~110 ft low'}
  571: {lat: 38.10592, lon: -107.49031, note: 'track summit (5 trk); peak_db was ~79 ft off, ~20 ft low'}
  388: {lat: 38.07797, lon: -107.51187, note: 'track summit (7 trk); peak_db was ~74 ft off, ~33 ft low'}
  552: {lat: 38.09781, lon: -107.53061, note: 'track summit (7 trk); peak_db was ~140 ft off, ~219 ft low'}
